{"1303": {"name": "Villeneuve", "n_spots": 69.0, "lat": 46.3983659275, "lng": 6.92699984758}, "1304": {"name": "Roche VD", "n_spots": 10.0, "lat": 46.3586855943, "lng": 6.92704973241}, "1423": {"name": "Vionnaz", "n_spots": 0, "lat": 46.3150242286, "lng": 6.91620575308}, "1424": {"name": "Vouvry", "n_spots": 0, "lat": 46.3372911702, "lng": 6.89757423459}, "1425": {"name": "Evouettes, Les", "n_spots": 0, "lat": 46.3628591884, "lng": 6.87946504066}}