{"1007": {"name": "Cointrin", "n_spots": 0, "lat": 46.2207092326, "lng": 6.09389439216, "id": 0}, "1008": {"name": "Gen\u00e8ve", "n_spots": 0, "lat": 46.2102022669, "lng": 6.14245302875, "id": 1}, "1012": {"name": "Creux-de-Genthod", "n_spots": 0, "lat": 46.263759507, "lng": 6.16132058711, "id": 2}, "1013": {"name": "Pont-C\u00e9ard", "n_spots": 0, "lat": 46.287391434, "lng": 6.16267245042, "id": 3}, "1021": {"name": "Genthod-Bellevue", "n_spots": 0, "lat": 46.2567305087, "lng": 6.15396312897, "id": 4}, "1022": {"name": "Versoix", "n_spots": 21.0, "lat": 46.2797158332, "lng": 6.16574632626, "id": 5}, "1026": {"name": "Gen\u00e8ve-A\u00e9roport", "n_spots": 290.0, "lat": 46.2325293452, "lng": 6.11198571992, "id": 6}, "1031": {"name": "Gland", "n_spots": 164.0, "lat": 46.419975355, "lng": 6.26913801937, "id": 7}, "1032": {"name": "Gilly-Bursinel", "n_spots": 0, "lat": 46.4450581908, "lng": 6.30636546465, "id": 8}, "1033": {"name": "Rolle", "n_spots": 88.0, "lat": 46.4627356609, "lng": 6.3364081818, "id": 9}, "1034": {"name": "Perroy", "n_spots": 0, "lat": 46.4712228249, "lng": 6.36299352204, "id": 10}, "1035": {"name": "Allaman", "n_spots": 88.0, "lat": 46.4757395273, "lng": 6.39970400408, "id": 11}, "1040": {"name": "Prangins", "n_spots": 0, "lat": 46.3959991986, "lng": 6.24498834605, "id": 12}, "1042": {"name": "Etoy", "n_spots": 13.0, "lat": 46.4751599503, "lng": 6.42713908598, "id": 13}, "16283": {"name": "Gen\u00e8ve S\u00e9cheron", "n_spots": 0, "lat": 46.222435146, "lng": 6.14455938175, "id": 14}}